[
  {
    "trackingId": "EP1001",
    "createdBy": "664f1a10c0f1a2a5d1a00001",
    "sender": { "address": "MG Road, Pune", "pin": "411001" },
    "receiver": { "name": "Rohit Sharma", "address": "Powai, Mumbai", "phone": "9876543201" },
    "location": "Pune",
    "status": "pending"
  },
  {
    "trackingId": "EP1002",
    "createdBy": "664f1a10c0f1a2a5d1a00001",
    "sender": { "address": "Sector 18, Noida", "pin": "201301" },
    "receiver": { "name": "Priya Desai", "address": "Baner, Pune", "phone": "9876543202" },
    "location": "Noida",
    "status": "in-transit"
  },
  {
    "trackingId": "EP1003",
    "createdBy": "664f1a10c0f1a2a5d1a00002",
    "sender": { "address": "Brigade Road, Bangalore", "pin": "560025" },
    "receiver": { "name": "Kiran Rao", "address": "Ameerpet, Hyderabad", "phone": "9876543203" },
    "location": "Bangalore",
    "status": "delivered"
  },
  {
    "trackingId": "EP1004",
    "createdBy": "664f1a10c0f1a2a5d1a00003",
    "sender": { "address": "DLF Phase 2, Gurgaon", "pin": "122002" },
    "receiver": { "name": "Sunita Singh", "address": "Indiranagar, Bangalore", "phone": "9876543204" },
    "location": "Gurgaon",
    "status": "in-transit"
  },
  {
    "trackingId": "EP1005",
    "createdBy": "664f1a10c0f1a2a5d1a00002",
    "sender": { "address": "Salt Lake, Kolkata", "pin": "700064" },
    "receiver": { "name": "Arjun Kapoor", "address": "Park Street, Kolkata", "phone": "9876543205" },
    "location": "Kolkata",
    "status": "pending"
  },
  {
    "trackingId": "EP1006",
    "createdBy": "664f1a10c0f1a2a5d1a00003",
    "sender": { "address": "Paldi, Ahmedabad", "pin": "380007" },
    "receiver": { "name": "Megha Jain", "address": "Gopalapuram, Chennai", "phone": "9876543206" },
    "location": "Ahmedabad"
  },
  {
    "trackingId": "EP1007",
    "createdBy": "664f1a10c0f1a2a5d1a00001",
    "sender": { "address": "Boring Road, Patna", "pin": "800001" },
    "receiver": { "name": "Nikita Bose", "address": "South City, Kolkata", "phone": "9876543207" },
    "location": "Patna"
  },
  {
    "trackingId": "EP1008",
    "createdBy": "664f1a10c0f1a2a5d1a00002",
    "sender": { "address": "Civil Lines, Delhi", "pin": "110054" },
    "receiver": { "name": "Rahul Mehta", "address": "Connaught Place, Delhi", "phone": "9876543208" },
    "location": "Delhi",
    "status": "delivered"
  },
  {
    "trackingId": "EP1009",
    "createdBy": "664f1a10c0f1a2a5d1a00003",
    "sender": { "address": "Rajaji Nagar, Bangalore", "pin": "560010" },
    "receiver": { "name": "Smita Kulkarni", "address": "Koregaon Park, Pune", "phone": "9876543209" },
    "location": "Bangalore"
  },
  {
    "trackingId": "EP1010",
    "createdBy": "664f1a10c0f1a2a5d1a00001",
    "sender": { "address": "Vashi, Navi Mumbai", "pin": "400703" },
    "receiver": { "name": "Aditya Singh", "address": "Mulund, Mumbai", "phone": "9876543210" },
    "location": "Mumbai"
  },
  {
    "trackingId": "EP1011",
    "createdBy": "664f1a10c0f1a2a5d1a00002",
    "sender": { "address": "Maninagar, Ahmedabad", "pin": "380008" },
    "receiver": { "name": "Neha Patel", "address": "Jayanagar, Bangalore", "phone": "9876543211" },
    "location": "Ahmedabad",
    "status": "in-transit"
  },
  {
    "trackingId": "EP1012",
    "createdBy": "664f1a10c0f1a2a5d1a00003",
    "sender": { "address": "Annanagar, Chennai", "pin": "600040" },
    "receiver": { "name": "Ramesh Reddy", "address": "Madhapur, Hyderabad", "phone": "9876543212" },
    "location": "Chennai"
  },
  {
    "trackingId": "EP1013",
    "createdBy": "664f1a10c0f1a2a5d1a00001",
    "sender": { "address": "Gandhi Maidan, Patna", "pin": "800004" },
    "receiver": { "name": "Pooja Yadav", "address": "Saket, Delhi", "phone": "9876543213" },
    "location": "Patna",
    "status": "pending"
  }
]
